{
"type": "FeatureCollection",
"features": [
{ "type": "Feature", "properties": { "type": "city", "class": "1", "name": "New York" }, "geometry": { "type": "Point", "coordinates": [ -73.983306884765611, 40.727486422997785 ] } },
{ "type": "Feature", "properties": { "type": "city", "class": "1", "name": "Chicago" }, "geometry": { "type": "Point", "coordinates": [ -87.628326416015625, 41.876718930343941 ] } },
{ "type": "Feature", "properties": { "type": "city", "class": "1", "name": "Atlanta" }, "geometry": { "type": "Point", "coordinates": [ -84.385986328125, 33.749464192325782 ] } },
{ "type": "Feature", "properties": { "type": "city", "class": "1", "name": "Miami" }, "geometry": { "type": "Point", "coordinates": [ -80.207061767578125, 25.777633878392646 ] } },
{ "type": "Feature", "properties": { "type": "city", "class": "1", "name": "Houston" }, "geometry": { "type": "Point", "coordinates": [ -95.367507934570312, 29.759310743027445 ] } },
{ "type": "Feature", "properties": { "type": "city", "class": "1", "name": "Los Angeles" }, "geometry": { "type": "Point", "coordinates": [ -118.2403564453125, 34.054934997985583 ] } },
{ "type": "Feature", "properties": { "type": "city", "class": "1", "name": "Seattle" }, "geometry": { "type": "Point", "coordinates": [ -122.325897216796875, 47.604311202445651 ] } },
{ "type": "Feature", "properties": { "type": "city", "class": "1", "name": "Denver" }, "geometry": { "type": "Point", "coordinates": [ -104.9798583984375, 39.740986355883564 ] } },
{ "type": "Feature", "properties": { "type": "city", "class": "2", "name": "Augusta" }, "geometry": { "type": "Point", "coordinates": [ -81.97723388671875, 33.463525475613785 ] } },
{ "type": "Feature", "properties": { "type": "city", "class": "2", "name": "Macon" }, "geometry": { "type": "Point", "coordinates": [ -83.6279296875, 32.842673631954312 ] } },
{ "type": "Feature", "properties": { "type": "city", "class": "2", "name": "Columbus" }, "geometry": { "type": "Point", "coordinates": [ -84.98748779296875, 32.463425957761039 ] } },
{ "type": "Feature", "properties": { "type": "city", "class": "2", "name": "Savannah" }, "geometry": { "type": "Point", "coordinates": [ -81.08734130859375, 32.07559289203769 ] } }
]
}
